[{"id":1,"name":"Bhavya Teja","service_id":5,"charge":950,"phone_number":"+913048762365","available":1,"latitude":28.573772,"longitude":76.791327},{"id":2,"name":"Eiravati Char","service_id":6,"charge":950,"phone_number":"+912692986086","available":1,"latitude":28.697512,"longitude":76.557149},{"id":3,"name":"Shyla Pant","service_id":7,"charge":900,"phone_number":"+910619144967","available":1,"latitude":28.820821,"longitude":76.500972},{"id":4,"name":"Advaita Deol","service_id":15,"charge":750,"phone_number":"+912468602034","available":1,"latitude":28.405609,"longitude":76.990807},{"id":5,"name":"Tanish Nisha","service_id":10,"charge":500,"phone_number":"+911552120003","available":1,"latitude":28.771053,"longitude":76.873159},{"id":6,"name":"Munjal Palla","service_id":5,"charge":700,"phone_number":"+913760964093","available":1,"latitude":28.693681,"longitude":76.736804},{"id":7,"name":"Gundeep Murlidhar","service_id":10,"charge":1100,"phone_number":"+916594557097","available":1,"latitude":28.821651,"longitude":77.102943},{"id":8,"name":"Goswami Khandekar","service_id":14,"charge":600,"phone_number":"+919597985177","available":1,"latitude":28.456184,"longitude":76.997108},{"id":9,"name":"Sabina Chauhan","service_id":2,"charge":550,"phone_number":"+911069726547","available":1,"latitude":28.467063,"longitude":76.600777},{"id":10,"name":"Mahant Maheshwari","service_id":13,"charge":1050,"phone_number":"+914824172671","available":1,"latitude":28.717665,"longitude":77.053039},{"id":11,"name":"Riaz Indora","service_id":1,"charge":950,"phone_number":"+916350402452","available":1,"latitude":28.601107,"longitude":76.636162},{"id":12,"name":"Kalindee Waybhase","service_id":2,"charge":900,"phone_number":"+918794357354","available":1,"latitude":28.421829,"longitude":76.841492},{"id":13,"name":"Nutan Chad","service_id":12,"charge":900,"phone_number":"+911514070239","available":1,"latitude":28.755379,"longitude":77.079423},{"id":14,"name":"Gurkeerat Rungta","service_id":9,"charge":900,"phone_number":"+911517959220","available":1,"latitude":28.60083,"longitude":76.58987},{"id":15,"name":"Naini Sodhi","service_id":4,"charge":1200,"phone_number":"+910089203954","available":1,"latitude":28.451244,"longitude":77.016223},{"id":16,"name":"Irumporai Shahid","service_id":3,"charge":1100,"phone_number":"+912720657135","available":1,"latitude":28.444405,"longitude":76.775692},{"id":17,"name":"Namrata Balkoty","service_id":2,"charge":850,"phone_number":"+915776058303","available":1,"latitude":28.857408,"longitude":76.81807},{"id":18,"name":"Rahi Bai","service_id":11,"charge":650,"phone_number":"+918904198774","available":1,"latitude":28.864105,"longitude":77.079526},{"id":19,"name":"Naman Aftab","service_id":3,"charge":850,"phone_number":"+918099927578","available":1,"latitude":28.580371,"longitude":76.898352},{"id":20,"name":"Shyamali Rao","service_id":5,"charge":800,"phone_number":"+918805481035","available":1,"latitude":28.662034,"longitude":76.849482},{"id":21,"name":"Gnanam Handa","service_id":10,"charge":850,"phone_number":"+912889577300","available":1,"latitude":28.411699,"longitude":76.620017},{"id":22,"name":"Aniruddh Ahmad","service_id":15,"charge":1200,"phone_number":"+918779892398","available":1,"latitude":28.859701,"longitude":76.954581},{"id":23,"name":"Saurabh Minhas","service_id":9,"charge":550,"phone_number":"+915019475496","available":1,"latitude":28.715375,"longitude":76.850509},{"id":24,"name":"Shubhanshu Ganguly","service_id":9,"charge":550,"phone_number":"+910880396178","available":1,"latitude":28.814387,"longitude":77.094421},{"id":25,"name":"Priyadarshan Shrivastav","service_id":6,"charge":1100,"phone_number":"+916416892703","available":1,"latitude":28.459644,"longitude":76.583116},{"id":26,"name":"Ashirvad Gopal","service_id":2,"charge":650,"phone_number":"+916515904162","available":1,"latitude":28.858022,"longitude":76.689464},{"id":27,"name":"Amrutha Baranwal","service_id":16,"charge":750,"phone_number":"+911313506151","available":1,"latitude":28.673138,"longitude":77.114455},{"id":28,"name":"Ilaiyaraja Soni","service_id":8,"charge":900,"phone_number":"+911160370038","available":1,"latitude":28.624868,"longitude":76.764249},{"id":29,"name":"Yashika Nalla","service_id":5,"charge":1150,"phone_number":"+911583369867","available":1,"latitude":28.695629,"longitude":77.172058},{"id":30,"name":"Kavia Adhaulia","service_id":10,"charge":550,"phone_number":"+913591839398","available":1,"latitude":28.795176,"longitude":76.858979},{"id":31,"name":"Vishwanath Mital","service_id":14,"charge":1150,"phone_number":"+912828069524","available":1,"latitude":28.68231,"longitude":77.063155},{"id":32,"name":"Prince Wadhawan","service_id":4,"charge":950,"phone_number":"+916046910656","available":1,"latitude":28.559774,"longitude":77.115599},{"id":33,"name":"Ahilan Unnikrishnan","service_id":15,"charge":650,"phone_number":"+915588128579","available":1,"latitude":28.646785,"longitude":77.091166},{"id":34,"name":"Pranidhi Rauniyar","service_id":10,"charge":800,"phone_number":"+911203122457","available":1,"latitude":28.41949,"longitude":76.713126},{"id":35,"name":"Harshvardhan Vaishnavi","service_id":5,"charge":550,"phone_number":"+910989412050","available":1,"latitude":28.636233,"longitude":76.704456},{"id":36,"name":"Amala Srivastav","service_id":5,"charge":1050,"phone_number":"+916132868328","available":1,"latitude":28.594061,"longitude":76.782391},{"id":37,"name":"Arun Dass","service_id":10,"charge":950,"phone_number":"+915225794852","available":1,"latitude":28.632887,"longitude":76.961854},{"id":38,"name":"Prajal Bassi","service_id":7,"charge":550,"phone_number":"+917597802999","available":1,"latitude":28.748158,"longitude":76.781626},{"id":39,"name":"Puruvi Loyal","service_id":6,"charge":950,"phone_number":"+911700665790","available":1,"latitude":28.418771,"longitude":76.642272},{"id":40,"name":"Livtar Vaishnavi","service_id":9,"charge":1150,"phone_number":"+912933625271","available":1,"latitude":28.528572,"longitude":76.729039},{"id":41,"name":"Drithi Shahi","service_id":14,"charge":600,"phone_number":"+914174920559","available":1,"latitude":28.549697,"longitude":76.934902},{"id":42,"name":"Kaeya Jena","service_id":3,"charge":950,"phone_number":"+915678869852","available":1,"latitude":28.663068,"longitude":77.015255},{"id":43,"name":"Yatharth Talwar","service_id":8,"charge":800,"phone_number":"+912825725293","available":1,"latitude":28.586051,"longitude":76.791649},{"id":44,"name":"Sarvanavel Shivagauri","service_id":13,"charge":650,"phone_number":"+910195910898","available":1,"latitude":28.854613,"longitude":76.560706},{"id":45,"name":"Maharth Manchanda","service_id":1,"charge":600,"phone_number":"+917716789948","available":1,"latitude":28.785399,"longitude":76.636766},{"id":46,"name":"Yakub Om","service_id":10,"charge":1100,"phone_number":"+916933248922","available":1,"latitude":28.503488,"longitude":76.974675},{"id":47,"name":"Shaurya Bapat","service_id":10,"charge":550,"phone_number":"+919094809914","available":1,"latitude":28.823466,"longitude":76.642591},{"id":48,"name":"Armaan Johari","service_id":4,"charge":500,"phone_number":"+917730148051","available":1,"latitude":28.747206,"longitude":76.558983},{"id":49,"name":"Ektha Bawa","service_id":5,"charge":1050,"phone_number":"+911067382631","available":1,"latitude":28.761223,"longitude":76.892519},{"id":50,"name":"Yochana Bhal","service_id":14,"charge":600,"phone_number":"+919210058743","available":1,"latitude":28.824773,"longitude":77.006201},{"id":51,"name":"Ekanpreet Rawat","service_id":14,"charge":1050,"phone_number":"+913684810033","available":1,"latitude":28.666663,"longitude":76.858323},{"id":52,"name":"Niteesh Bano","service_id":14,"charge":550,"phone_number":"+917002275299","available":1,"latitude":28.408021,"longitude":76.757941},{"id":53,"name":"Kiara Mondal","service_id":5,"charge":650,"phone_number":"+919143156720","available":1,"latitude":28.639926,"longitude":77.050124},{"id":54,"name":"Vimlesh Khaliq","service_id":8,"charge":1200,"phone_number":"+919937917444","available":1,"latitude":28.538116,"longitude":76.631541},{"id":55,"name":"Hasina Mannan","service_id":8,"charge":950,"phone_number":"+916781909615","available":1,"latitude":28.446891,"longitude":76.949122},{"id":56,"name":"Pardhuman Kota","service_id":5,"charge":1000,"phone_number":"+910554046958","available":1,"latitude":28.751592,"longitude":77.144457},{"id":57,"name":"Lopa Mehta","service_id":3,"charge":900,"phone_number":"+918854518700","available":1,"latitude":28.624362,"longitude":76.822193},{"id":58,"name":"Ahmad Vasistha","service_id":8,"charge":900,"phone_number":"+912661548735","available":1,"latitude":28.766509,"longitude":76.915693},{"id":59,"name":"Devjeet Chakraborty","service_id":13,"charge":1050,"phone_number":"+919412207737","available":1,"latitude":28.597701,"longitude":76.645035},{"id":60,"name":"Ladli Mody","service_id":10,"charge":500,"phone_number":"+919611484534","available":1,"latitude":28.676568,"longitude":77.149424},{"id":61,"name":"Pavalam Malviya","service_id":4,"charge":1150,"phone_number":"+912414602411","available":1,"latitude":28.684653,"longitude":76.991075},{"id":62,"name":"Geetika Shahid","service_id":4,"charge":600,"phone_number":"+917219512021","available":1,"latitude":28.831762,"longitude":76.528464},{"id":63,"name":"Sreekanth Mangla","service_id":10,"charge":600,"phone_number":"+915237056895","available":1,"latitude":28.619862,"longitude":77.101985},{"id":64,"name":"Kirandeep Varshney","service_id":1,"charge":850,"phone_number":"+917040147351","available":1,"latitude":28.417985,"longitude":76.766381},{"id":65,"name":"Aayushi Sachdev","service_id":9,"charge":800,"phone_number":"+918417777217","available":1,"latitude":28.633569,"longitude":76.690868},{"id":66,"name":"Yochana Viswanathan","service_id":5,"charge":600,"phone_number":"+913827006028","available":1,"latitude":28.845629,"longitude":77.085079},{"id":67,"name":"Sulochana Wasif","service_id":16,"charge":800,"phone_number":"+913977693409","available":1,"latitude":28.482398,"longitude":77.131415},{"id":68,"name":"Zunaira Zachariah","service_id":6,"charge":1050,"phone_number":"+916076313521","available":1,"latitude":28.845327,"longitude":76.935084},{"id":69,"name":"Prerna Wagle","service_id":14,"charge":900,"phone_number":"+912281143387","available":1,"latitude":28.434383,"longitude":76.965175},{"id":70,"name":"Xiti Machra","service_id":16,"charge":700,"phone_number":"+917875574577","available":1,"latitude":28.798456,"longitude":76.557103},{"id":71,"name":"Shakkil Kumari","service_id":11,"charge":1200,"phone_number":"+911590231306","available":1,"latitude":28.66282,"longitude":76.558942},{"id":72,"name":"Sadguna Pattnaik","service_id":11,"charge":850,"phone_number":"+916294730372","available":1,"latitude":28.78302,"longitude":77.12587},{"id":73,"name":"Jaspinder Pillai","service_id":3,"charge":1000,"phone_number":"+910008646281","available":1,"latitude":28.534934,"longitude":76.654817},{"id":74,"name":"Kanimoli Sekh","service_id":11,"charge":1050,"phone_number":"+913112336699","available":1,"latitude":28.596103,"longitude":76.699965},{"id":75,"name":"Bhavyesh Golla","service_id":3,"charge":850,"phone_number":"+915107709727","available":1,"latitude":28.598088,"longitude":77.110707},{"id":76,"name":"Sadiq Bakshi","service_id":16,"charge":1050,"phone_number":"+917608163659","available":1,"latitude":28.542532,"longitude":76.566254},{"id":77,"name":"Lakshmi Badami","service_id":6,"charge":1000,"phone_number":"+914966269328","available":1,"latitude":28.455103,"longitude":76.873837},{"id":78,"name":"Yashveer Purohit","service_id":15,"charge":700,"phone_number":"+918467514173","available":1,"latitude":28.617716,"longitude":76.893161},{"id":79,"name":"Jegathiswaran Behera","service_id":12,"charge":650,"phone_number":"+917863940046","available":1,"latitude":28.423584,"longitude":76.998366},{"id":80,"name":"Shubham Khan","service_id":13,"charge":700,"phone_number":"+916764229999","available":1,"latitude":28.705616,"longitude":76.596036},{"id":81,"name":"Sarika Mahapatra","service_id":6,"charge":1200,"phone_number":"+911035388105","available":1,"latitude":28.646784,"longitude":76.999904},{"id":82,"name":"Apurva Ramaswamy","service_id":10,"charge":750,"phone_number":"+912265583415","available":1,"latitude":28.483798,"longitude":76.643359},{"id":83,"name":"Ratnesh Dudeja","service_id":14,"charge":600,"phone_number":"+912757843638","available":1,"latitude":28.777176,"longitude":76.808346},{"id":84,"name":"Uttam Mustafa","service_id":14,"charge":850,"phone_number":"+917689946215","available":1,"latitude":28.424368,"longitude":76.547228},{"id":85,"name":"Tanay Begam","service_id":15,"charge":1100,"phone_number":"+914085991482","available":1,"latitude":28.390249,"longitude":76.694732},{"id":86,"name":"Ekaparnika Sastry","service_id":3,"charge":550,"phone_number":"+911327481973","available":1,"latitude":28.651771,"longitude":76.582861},{"id":87,"name":"Dhruva Shingh","service_id":4,"charge":700,"phone_number":"+916523253554","available":1,"latitude":28.6641,"longitude":76.563888},{"id":88,"name":"Vengatesh More","service_id":1,"charge":1050,"phone_number":"+918049476045","available":1,"latitude":28.826819,"longitude":77.030571},{"id":89,"name":"Hatchinghoi Chahal","service_id":12,"charge":1100,"phone_number":"+910018490858","available":1,"latitude":28.562917,"longitude":76.679936},{"id":90,"name":"Aswad Issac","service_id":15,"charge":550,"phone_number":"+911616313529","available":1,"latitude":28.764482,"longitude":76.770289},{"id":91,"name":"Thangaraj Siddiqui","service_id":12,"charge":500,"phone_number":"+910789617079","available":1,"latitude":28.456772,"longitude":76.710447},{"id":92,"name":"Sanu Balakrishnan","service_id":6,"charge":1000,"phone_number":"+914274328184","available":1,"latitude":28.791026,"longitude":77.062272},{"id":93,"name":"Abhinandan Thaman","service_id":2,"charge":700,"phone_number":"+910547673115","available":1,"latitude":28.51585,"longitude":77.02838},{"id":94,"name":"Sowjanya Borah","service_id":11,"charge":1100,"phone_number":"+911108773404","available":1,"latitude":28.502091,"longitude":77.052635},{"id":95,"name":"Yogita Ganesh","service_id":14,"charge":500,"phone_number":"+914991522420","available":1,"latitude":28.552288,"longitude":77.195688},{"id":96,"name":"Sony Sura","service_id":5,"charge":700,"phone_number":"+914736133481","available":1,"latitude":28.794939,"longitude":76.918442},{"id":97,"name":"Manaswini Ben","service_id":15,"charge":950,"phone_number":"+917849489775","available":1,"latitude":28.451536,"longitude":76.543211},{"id":98,"name":"Livtar Varkey","service_id":10,"charge":550,"phone_number":"+916317949511","available":1,"latitude":28.865489,"longitude":76.973126},{"id":99,"name":"Zaina Narasimhan","service_id":15,"charge":1050,"phone_number":"+918157851006","available":1,"latitude":28.516273,"longitude":76.695823},{"id":100,"name":"Deepak Varkey","service_id":7,"charge":950,"phone_number":"+918134827088","available":1,"latitude":28.511504,"longitude":77.088773},{"id":101,"name":"Yashodhara Bhatt","service_id":13,"charge":1200,"phone_number":"+911776915053","available":1,"latitude":28.776439,"longitude":76.854507},{"id":102,"name":"Datarpreet Gehlot","service_id":9,"charge":1150,"phone_number":"+916973931045","available":1,"latitude":28.824106,"longitude":76.993742},{"id":103,"name":"Subhashis Mahawar","service_id":4,"charge":900,"phone_number":"+911142096318","available":1,"latitude":28.520283,"longitude":76.955776},{"id":104,"name":"Gargi Tomar","service_id":2,"charge":1050,"phone_number":"+919239385701","available":1,"latitude":28.475215,"longitude":76.918593},{"id":105,"name":"Kanayali Thakkar","service_id":3,"charge":650,"phone_number":"+916192284131","available":1,"latitude":28.474651,"longitude":76.81032},{"id":106,"name":"Shantae Warrior","service_id":1,"charge":650,"phone_number":"+915258671220","available":1,"latitude":28.392559,"longitude":77.096318},{"id":107,"name":"Abbas Porwal","service_id":10,"charge":550,"phone_number":"+917153943777","available":1,"latitude":28.512286,"longitude":76.705974},{"id":108,"name":"Lipika Dass","service_id":15,"charge":1200,"phone_number":"+914654940168","available":1,"latitude":28.800034,"longitude":76.780336},{"id":109,"name":"Yashica Nagy","service_id":1,"charge":500,"phone_number":"+917815953717","available":1,"latitude":28.617594,"longitude":77.126164},{"id":110,"name":"Raashi Mahankali","service_id":4,"charge":900,"phone_number":"+919148151902","available":1,"latitude":28.630486,"longitude":77.162364},{"id":111,"name":"Naitik Matthai","service_id":16,"charge":700,"phone_number":"+918859047188","available":1,"latitude":28.561294,"longitude":77.173522},{"id":112,"name":"Kalaivani Manda","service_id":6,"charge":650,"phone_number":"+912831288067","available":1,"latitude":28.52038,"longitude":76.644776},{"id":113,"name":"Shukant Mathur","service_id":10,"charge":1100,"phone_number":"+910616665119","available":1,"latitude":28.492228,"longitude":76.562842},{"id":114,"name":"Paritosh Paswan","service_id":10,"charge":600,"phone_number":"+916753773868","available":1,"latitude":28.811906,"longitude":76.759712},{"id":115,"name":"Kaeya Mehra","service_id":3,"charge":500,"phone_number":"+916919844289","available":1,"latitude":28.70355,"longitude":76.719061},{"id":116,"name":"Arsalan Ranjan","service_id":5,"charge":600,"phone_number":"+912683491418","available":1,"latitude":28.502281,"longitude":76.558187},{"id":117,"name":"Junaid Manju","service_id":6,"charge":850,"phone_number":"+916123839414","available":1,"latitude":28.529606,"longitude":77.162681},{"id":118,"name":"Abhishek Kulal","service_id":7,"charge":600,"phone_number":"+913542068056","available":1,"latitude":28.808617,"longitude":77.041031},{"id":119,"name":"Rajamani Korpal","service_id":15,"charge":650,"phone_number":"+915364122795","available":1,"latitude":28.394305,"longitude":76.535143},{"id":120,"name":"Prerit Apte","service_id":9,"charge":700,"phone_number":"+918923063855","available":1,"latitude":28.594052,"longitude":76.719165},{"id":121,"name":"Ayaan Bose","service_id":9,"charge":1050,"phone_number":"+918127269079","available":1,"latitude":28.859503,"longitude":76.896192},{"id":122,"name":"Cherry Din","service_id":12,"charge":1050,"phone_number":"+919395968659","available":1,"latitude":28.38639,"longitude":76.946793},{"id":123,"name":"Abhijit Kukreja","service_id":2,"charge":800,"phone_number":"+912915685642","available":1,"latitude":28.384105,"longitude":77.188528},{"id":124,"name":"Ojas Dutt","service_id":6,"charge":1100,"phone_number":"+910648826913","available":1,"latitude":28.46084,"longitude":76.562614},{"id":125,"name":"Virika Purohit","service_id":15,"charge":550,"phone_number":"+911307458096","available":1,"latitude":28.854829,"longitude":76.652453},{"id":126,"name":"Debashish Sahota","service_id":1,"charge":1100,"phone_number":"+919440856443","available":1,"latitude":28.855834,"longitude":77.076673},{"id":127,"name":"Apoorva Shahi","service_id":12,"charge":900,"phone_number":"+917421362900","available":1,"latitude":28.756535,"longitude":76.949508},{"id":128,"name":"Shresthi Murlidhar","service_id":14,"charge":500,"phone_number":"+916390474332","available":1,"latitude":28.624509,"longitude":76.761505},{"id":129,"name":"Shyamali Raza","service_id":1,"charge":1050,"phone_number":"+916174989708","available":1,"latitude":28.720403,"longitude":77.082156},{"id":130,"name":"Yogesh Naidu","service_id":15,"charge":1050,"phone_number":"+915190775454","available":1,"latitude":28.609269,"longitude":76.645423},{"id":131,"name":"Jhumpa Merchant","service_id":1,"charge":1150,"phone_number":"+911232952699","available":1,"latitude":28.455523,"longitude":76.509111},{"id":132,"name":"Ritank Ganesan","service_id":4,"charge":1050,"phone_number":"+911409400507","available":1,"latitude":28.548089,"longitude":76.59647},{"id":133,"name":"Akhya Chary","service_id":12,"charge":850,"phone_number":"+912313314227","available":1,"latitude":28.55614,"longitude":76.571271},{"id":134,"name":"Virika Dhindhwal","service_id":5,"charge":1200,"phone_number":"+919445349018","available":1,"latitude":28.697464,"longitude":76.863162},{"id":135,"name":"Sujit Yogi","service_id":14,"charge":500,"phone_number":"+914702292852","available":1,"latitude":28.741341,"longitude":76.838811},{"id":136,"name":"Aruba Kotturu","service_id":1,"charge":800,"phone_number":"+914290418164","available":1,"latitude":28.440922,"longitude":76.824902},{"id":137,"name":"Vansha Kanojia","service_id":14,"charge":1100,"phone_number":"+918171333342","available":1,"latitude":28.782925,"longitude":76.756975},{"id":138,"name":"Debanjana Ramesh","service_id":1,"charge":700,"phone_number":"+918132117578","available":1,"latitude":28.60785,"longitude":76.709899},{"id":139,"name":"Vimlesh Contractor","service_id":7,"charge":750,"phone_number":"+913027512242","available":1,"latitude":28.464834,"longitude":76.687907},{"id":140,"name":"Dhruvan Shukla","service_id":11,"charge":650,"phone_number":"+915252327022","available":1,"latitude":28.485136,"longitude":76.819349},{"id":141,"name":"Ganesh Atri","service_id":13,"charge":1200,"phone_number":"+913226972585","available":1,"latitude":28.634777,"longitude":77.180984},{"id":142,"name":"Archi Ram","service_id":3,"charge":500,"phone_number":"+914854369136","available":1,"latitude":28.778834,"longitude":76.531146},{"id":143,"name":"Zayan Preetham","service_id":15,"charge":1150,"phone_number":"+911528091080","available":1,"latitude":28.806535,"longitude":76.664921},{"id":144,"name":"Amaira Saluja","service_id":5,"charge":1000,"phone_number":"+915403381356","available":1,"latitude":28.458453,"longitude":76.644284},{"id":145,"name":"Prashant Chitranshi","service_id":13,"charge":900,"phone_number":"+913480778182","available":1,"latitude":28.750057,"longitude":77.066067},{"id":146,"name":"Hiran Karnik","service_id":2,"charge":1100,"phone_number":"+917232782829","available":1,"latitude":28.666097,"longitude":77.095231},{"id":147,"name":"Rathindra Kadakia","service_id":3,"charge":600,"phone_number":"+919097303176","available":1,"latitude":28.679165,"longitude":77.1879},{"id":148,"name":"Arish Yogi","service_id":16,"charge":500,"phone_number":"+918082081635","available":1,"latitude":28.744544,"longitude":76.907678},{"id":149,"name":"Hemanshu Dasgupta","service_id":11,"charge":850,"phone_number":"+918923340491","available":1,"latitude":28.822911,"longitude":77.164907},{"id":150,"name":"Neeraj Mehra","service_id":9,"charge":800,"phone_number":"+917039848818","available":1,"latitude":28.609341,"longitude":77.139517},{"id":151,"name":"Snoopi Mannan","service_id":9,"charge":1200,"phone_number":"+918160810448","available":1,"latitude":28.674045,"longitude":76.728138},{"id":152,"name":"Shabaj Chacko","service_id":7,"charge":500,"phone_number":"+918985415840","available":1,"latitude":28.622489,"longitude":76.577257},{"id":153,"name":"Sneha Apte","service_id":10,"charge":1200,"phone_number":"+916978693385","available":1,"latitude":28.489252,"longitude":76.744943},{"id":154,"name":"Tamanna Das","service_id":9,"charge":550,"phone_number":"+913539616301","available":1,"latitude":28.520754,"longitude":77.066711},{"id":155,"name":"Jarita Koshy","service_id":3,"charge":1050,"phone_number":"+914501634633","available":1,"latitude":28.489983,"longitude":76.935284},{"id":156,"name":"Stalin Shroff","service_id":6,"charge":1150,"phone_number":"+911403230098","available":1,"latitude":28.789032,"longitude":76.776396},{"id":157,"name":"Olimani Wagle","service_id":10,"charge":850,"phone_number":"+919150878752","available":1,"latitude":28.516871,"longitude":76.625088},{"id":158,"name":"Shreyash Molla","service_id":10,"charge":1150,"phone_number":"+914101419014","available":1,"latitude":28.841718,"longitude":76.624774},{"id":159,"name":"Rishav Parashar","service_id":12,"charge":650,"phone_number":"+915736684631","available":1,"latitude":28.557798,"longitude":76.641368},{"id":160,"name":"Raghubeer Shroff","service_id":14,"charge":750,"phone_number":"+911867659966","available":1,"latitude":28.833137,"longitude":76.521261},{"id":161,"name":"Udai Sachar","service_id":12,"charge":900,"phone_number":"+919112147811","available":1,"latitude":28.776178,"longitude":76.687755},{"id":162,"name":"Vishnu Mody","service_id":5,"charge":550,"phone_number":"+916258552892","available":1,"latitude":28.82549,"longitude":76.95269},{"id":163,"name":"Viswaroopin Vasav","service_id":16,"charge":900,"phone_number":"+913699858687","available":1,"latitude":28.563035,"longitude":76.658391},{"id":164,"name":"Charvitha Purohit","service_id":5,"charge":1150,"phone_number":"+917087750926","available":1,"latitude":28.477551,"longitude":77.081301},{"id":165,"name":"Khushboo Matthai","service_id":11,"charge":650,"phone_number":"+915520570753","available":1,"latitude":28.70096,"longitude":77.028199},{"id":166,"name":"Charu Alam","service_id":11,"charge":700,"phone_number":"+913222148891","available":1,"latitude":28.409958,"longitude":76.567302},{"id":167,"name":"Akshat Chitranshi","service_id":7,"charge":500,"phone_number":"+918614143196","available":1,"latitude":28.821199,"longitude":76.760882},{"id":168,"name":"Zara Shrivas","service_id":5,"charge":750,"phone_number":"+914902190422","available":1,"latitude":28.778319,"longitude":76.882278},{"id":169,"name":"Kirpal Saxena","service_id":9,"charge":850,"phone_number":"+913054641376","available":1,"latitude":28.603702,"longitude":76.758},{"id":170,"name":"Chanchal Sahni","service_id":1,"charge":800,"phone_number":"+912676900497","available":1,"latitude":28.759871,"longitude":76.614013},{"id":171,"name":"Satyarth Sama","service_id":4,"charge":850,"phone_number":"+916563759488","available":1,"latitude":28.556317,"longitude":77.086516},{"id":172,"name":"Saloni Waybhase","service_id":9,"charge":1050,"phone_number":"+915400134845","available":1,"latitude":28.517916,"longitude":76.609317},{"id":173,"name":"Zaid Rawat","service_id":12,"charge":750,"phone_number":"+918018340052","available":1,"latitude":28.825519,"longitude":77.163716},{"id":174,"name":"Sushil Aishwary","service_id":10,"charge":950,"phone_number":"+913597185352","available":1,"latitude":28.781179,"longitude":77.09783},{"id":175,"name":"Digraj Juneja","service_id":2,"charge":1000,"phone_number":"+918116429740","available":1,"latitude":28.782695,"longitude":76.79006},{"id":176,"name":"Sujoy Dyal","service_id":11,"charge":1050,"phone_number":"+913851499189","available":1,"latitude":28.797999,"longitude":77.165938},{"id":177,"name":"Shukant Srinivas","service_id":4,"charge":750,"phone_number":"+918413174235","available":1,"latitude":28.613778,"longitude":76.938383},{"id":178,"name":"Mohsin Manjhi","service_id":6,"charge":500,"phone_number":"+914125157918","available":1,"latitude":28.864358,"longitude":76.935886},{"id":179,"name":"Manju Mourya","service_id":12,"charge":1100,"phone_number":"+914824977268","available":1,"latitude":28.810352,"longitude":76.673531},{"id":180,"name":"Kaberi Lockwani","service_id":3,"charge":500,"phone_number":"+912728956322","available":1,"latitude":28.475965,"longitude":76.929441},{"id":181,"name":"Ilamaran Murmu","service_id":12,"charge":500,"phone_number":"+911318048359","available":1,"latitude":28.808316,"longitude":76.939207},{"id":182,"name":"Avnindra Kohli","service_id":15,"charge":600,"phone_number":"+919836798351","available":1,"latitude":28.555487,"longitude":76.599376},{"id":183,"name":"Aqib Khan","service_id":15,"charge":1200,"phone_number":"+910764105709","available":1,"latitude":28.805646,"longitude":76.733181},{"id":184,"name":"Anvit Garg","service_id":14,"charge":950,"phone_number":"+918862868141","available":1,"latitude":28.842183,"longitude":76.584193},{"id":185,"name":"Hussain Kalsi","service_id":8,"charge":750,"phone_number":"+913454878014","available":1,"latitude":28.508773,"longitude":76.650624},{"id":186,"name":"Nagesh Reddy","service_id":2,"charge":1200,"phone_number":"+911247711974","available":1,"latitude":28.704897,"longitude":77.120771},{"id":187,"name":"Sumedh Pai","service_id":12,"charge":650,"phone_number":"+912075494522","available":1,"latitude":28.394006,"longitude":76.766155},{"id":188,"name":"Wasfia Sarna","service_id":2,"charge":1150,"phone_number":"+916076234140","available":1,"latitude":28.786282,"longitude":76.785312},{"id":189,"name":"Aviral Jose","service_id":10,"charge":750,"phone_number":"+919932086339","available":1,"latitude":28.551609,"longitude":76.65436},{"id":190,"name":"Nitya Maharaj","service_id":3,"charge":900,"phone_number":"+918634463274","available":1,"latitude":28.510072,"longitude":76.962502},{"id":191,"name":"Ragini Singhal","service_id":2,"charge":1150,"phone_number":"+911632874237","available":1,"latitude":28.709529,"longitude":76.725792},{"id":192,"name":"Eelampirai Shandilya","service_id":14,"charge":700,"phone_number":"+910904065869","available":1,"latitude":28.638476,"longitude":77.091334},{"id":193,"name":"Anshit Dhaulakhandi","service_id":6,"charge":1200,"phone_number":"+915566006385","available":1,"latitude":28.752392,"longitude":76.566877},{"id":194,"name":"Divyansh Sathe","service_id":1,"charge":600,"phone_number":"+914280990651","available":1,"latitude":28.485679,"longitude":76.876805},{"id":195,"name":"Kaushambi Kewlani","service_id":11,"charge":750,"phone_number":"+913108458720","available":1,"latitude":28.70949,"longitude":76.903191},{"id":196,"name":"Darika Bhandari","service_id":14,"charge":750,"phone_number":"+917136587295","available":1,"latitude":28.532222,"longitude":76.632382},{"id":197,"name":"Ishank Sarkar","service_id":1,"charge":950,"phone_number":"+917385056614","available":1,"latitude":28.647025,"longitude":76.967138},{"id":198,"name":"Meera Sarnobat","service_id":16,"charge":650,"phone_number":"+917411547991","available":1,"latitude":28.787022,"longitude":76.698708},{"id":199,"name":"Karan Apte","service_id":3,"charge":750,"phone_number":"+912108847297","available":1,"latitude":28.767746,"longitude":76.794014},{"id":200,"name":"Rupali Bandi","service_id":1,"charge":650,"phone_number":"+917830701283","available":1,"latitude":28.653841,"longitude":77.039901},{"id":201,"name":"Ravinandan Narayanan","service_id":3,"charge":1150,"phone_number":"+912552790391","available":1,"latitude":28.497458,"longitude":77.131948},{"id":202,"name":"Gajdant Bhadauria","service_id":7,"charge":600,"phone_number":"+913277810361","available":1,"latitude":28.484156,"longitude":76.599332},{"id":203,"name":"Arpit Ma","service_id":5,"charge":800,"phone_number":"+914926385089","available":1,"latitude":28.57611,"longitude":77.041111},{"id":204,"name":"Gaurangi Rama","service_id":11,"charge":700,"phone_number":"+918673565321","available":1,"latitude":28.548033,"longitude":76.715944},{"id":205,"name":"Kundan Bhadouriya","service_id":1,"charge":850,"phone_number":"+918934495241","available":1,"latitude":28.622967,"longitude":76.860272},{"id":206,"name":"Mouni Kesarwani","service_id":14,"charge":950,"phone_number":"+916433053473","available":1,"latitude":28.755259,"longitude":77.065991},{"id":207,"name":"Omisha Wagh","service_id":12,"charge":850,"phone_number":"+910739042255","available":1,"latitude":28.641452,"longitude":77.190622},{"id":208,"name":"Sonika Tailor","service_id":13,"charge":1200,"phone_number":"+913893165945","available":1,"latitude":28.726188,"longitude":76.872915},{"id":209,"name":"Shraddha Vikram","service_id":1,"charge":1200,"phone_number":"+912164805877","available":1,"latitude":28.531554,"longitude":76.905371},{"id":210,"name":"Dhairya Bal","service_id":8,"charge":900,"phone_number":"+919438174820","available":1,"latitude":28.78675,"longitude":76.959943},{"id":211,"name":"Hiba Khanna","service_id":7,"charge":1150,"phone_number":"+912893700269","available":1,"latitude":28.630754,"longitude":76.788595},{"id":212,"name":"Lirthika Kohli","service_id":13,"charge":600,"phone_number":"+914370731618","available":1,"latitude":28.81903,"longitude":76.848502},{"id":213,"name":"Tarana Basak","service_id":11,"charge":1150,"phone_number":"+912615591713","available":1,"latitude":28.628762,"longitude":76.61316},{"id":214,"name":"Mila Tak","service_id":7,"charge":500,"phone_number":"+918184137464","available":1,"latitude":28.668825,"longitude":77.132534},{"id":215,"name":"Azha Kata","service_id":2,"charge":1000,"phone_number":"+913728526009","available":1,"latitude":28.414335,"longitude":76.796782},{"id":216,"name":"Anaka Rakhecha","service_id":8,"charge":1200,"phone_number":"+917692474844","available":1,"latitude":28.701886,"longitude":76.874628},{"id":217,"name":"GangaRam Shinde","service_id":4,"charge":850,"phone_number":"+916053844941","available":1,"latitude":28.783455,"longitude":76.968164},{"id":218,"name":"Nippu Krish","service_id":8,"charge":1050,"phone_number":"+919932611213","available":1,"latitude":28.674794,"longitude":77.093045},{"id":219,"name":"Ruqayyah Gujrati","service_id":1,"charge":1050,"phone_number":"+911821484188","available":1,"latitude":28.59703,"longitude":76.858655},{"id":220,"name":"Jyoti Vilas","service_id":10,"charge":700,"phone_number":"+919952227174","available":1,"latitude":28.798899,"longitude":76.728385},{"id":221,"name":"Debolina Ali","service_id":9,"charge":550,"phone_number":"+918275207708","available":1,"latitude":28.512893,"longitude":76.628461},{"id":222,"name":"Elango Narayan","service_id":4,"charge":750,"phone_number":"+918799004305","available":1,"latitude":28.733382,"longitude":76.922076},{"id":223,"name":"Amrin Gaikwad","service_id":1,"charge":800,"phone_number":"+910357532977","available":1,"latitude":28.460205,"longitude":77.073232},{"id":224,"name":"Raman Nadig","service_id":16,"charge":950,"phone_number":"+914899444623","available":1,"latitude":28.7863,"longitude":76.533529},{"id":225,"name":"Madhavan Sarnobat","service_id":9,"charge":950,"phone_number":"+917905553470","available":1,"latitude":28.670598,"longitude":76.795499},{"id":226,"name":"Atishay Shahid","service_id":8,"charge":950,"phone_number":"+910687875137","available":1,"latitude":28.60143,"longitude":77.177659},{"id":227,"name":"Nav Kuruvilla","service_id":3,"charge":1050,"phone_number":"+914332597799","available":1,"latitude":28.571234,"longitude":76.784447},{"id":228,"name":"Manish Bhorkhade","service_id":5,"charge":800,"phone_number":"+911829896806","available":1,"latitude":28.506498,"longitude":76.934027},{"id":229,"name":"Ilakkiyan Kibe","service_id":9,"charge":850,"phone_number":"+912165816232","available":1,"latitude":28.834724,"longitude":76.769476},{"id":230,"name":"Bhrithi Agarwal","service_id":13,"charge":700,"phone_number":"+914374793543","available":1,"latitude":28.507862,"longitude":77.07237},{"id":231,"name":"Faiyaz Tata","service_id":13,"charge":1100,"phone_number":"+917368641305","available":1,"latitude":28.508475,"longitude":76.632889},{"id":232,"name":"Pawan Bora","service_id":8,"charge":1200,"phone_number":"+910427401004","available":1,"latitude":28.661382,"longitude":76.851353},{"id":233,"name":"Oresh Bhargava","service_id":6,"charge":750,"phone_number":"+917967901779","available":1,"latitude":28.490086,"longitude":76.790226},{"id":234,"name":"Rajanikanta Samaddar","service_id":9,"charge":950,"phone_number":"+915163771714","available":1,"latitude":28.398876,"longitude":76.777439},{"id":235,"name":"Suryansh Lanka","service_id":14,"charge":1050,"phone_number":"+911487518448","available":1,"latitude":28.867709,"longitude":76.666661},{"id":236,"name":"Mangai Parsa","service_id":11,"charge":1150,"phone_number":"+918209460453","available":1,"latitude":28.66384,"longitude":76.697519},{"id":237,"name":"Jalender Obed","service_id":8,"charge":1000,"phone_number":"+913856086026","available":1,"latitude":28.448399,"longitude":76.893841},{"id":238,"name":"Alok Sankaran","service_id":10,"charge":500,"phone_number":"+917975639720","available":1,"latitude":28.65604,"longitude":76.565134},{"id":239,"name":"Paru Nadaf","service_id":3,"charge":900,"phone_number":"+910819858258","available":1,"latitude":28.627176,"longitude":76.600511},{"id":240,"name":"Bhawna Purkayastha","service_id":1,"charge":750,"phone_number":"+915938646294","available":1,"latitude":28.756568,"longitude":77.009184},{"id":241,"name":"Prakhar Srivastav","service_id":7,"charge":650,"phone_number":"+919988013816","available":1,"latitude":28.715086,"longitude":76.643877},{"id":242,"name":"Shailendra Kasaudhan","service_id":12,"charge":1150,"phone_number":"+915798214106","available":1,"latitude":28.670635,"longitude":76.790932},{"id":243,"name":"Suchita Chirag","service_id":16,"charge":600,"phone_number":"+918220447762","available":1,"latitude":28.610687,"longitude":76.733847},{"id":244,"name":"Divyanshi Dhaliwal","service_id":11,"charge":1200,"phone_number":"+915532199569","available":1,"latitude":28.713402,"longitude":77.026728},{"id":245,"name":"Ohm Rajput","service_id":15,"charge":950,"phone_number":"+917493579723","available":1,"latitude":28.625123,"longitude":77.107192},{"id":246,"name":"Hasina Chandran","service_id":6,"charge":750,"phone_number":"+916325705259","available":1,"latitude":28.694059,"longitude":76.852796},{"id":247,"name":"Anya Contractor","service_id":11,"charge":600,"phone_number":"+919301711361","available":1,"latitude":28.866627,"longitude":77.116636},{"id":248,"name":"Sameer Maddipatla","service_id":13,"charge":600,"phone_number":"+915008290068","available":1,"latitude":28.599665,"longitude":77.125311},{"id":249,"name":"Arpita Sha","service_id":6,"charge":650,"phone_number":"+911694717591","available":1,"latitude":28.839978,"longitude":76.574755},{"id":250,"name":"Jai Varghese","service_id":11,"charge":500,"phone_number":"+916957410973","available":1,"latitude":28.532784,"longitude":77.196765},{"id":251,"name":"Gajaanan Nigam","service_id":5,"charge":1100,"phone_number":"+914740276817","available":1,"latitude":28.694087,"longitude":76.516182},{"id":252,"name":"Chandani Wasif","service_id":8,"charge":650,"phone_number":"+915991488658","available":1,"latitude":28.495707,"longitude":76.691764},{"id":253,"name":"Vatsalya Tewari","service_id":3,"charge":1000,"phone_number":"+918446654134","available":1,"latitude":28.693676,"longitude":76.827745},{"id":254,"name":"Manu Mohanty","service_id":15,"charge":900,"phone_number":"+916174358556","available":1,"latitude":28.712215,"longitude":76.644947},{"id":255,"name":"Mayukh Loyal","service_id":5,"charge":500,"phone_number":"+911690972903","available":1,"latitude":28.653903,"longitude":77.043826},{"id":256,"name":"Swapnil Chokshi","service_id":11,"charge":1200,"phone_number":"+919786647714","available":1,"latitude":28.677458,"longitude":77.00856},{"id":257,"name":"Mustafa Hans","service_id":14,"charge":1150,"phone_number":"+910793759358","available":1,"latitude":28.428464,"longitude":77.041387},{"id":258,"name":"Mivan Virk","service_id":11,"charge":550,"phone_number":"+911254592364","available":1,"latitude":28.471745,"longitude":76.985983},{"id":259,"name":"Anubhuti Bahri","service_id":3,"charge":500,"phone_number":"+912516922399","available":1,"latitude":28.438797,"longitude":76.834585},{"id":260,"name":"Jahnavi Mohan","service_id":2,"charge":1150,"phone_number":"+919601944688","available":1,"latitude":28.601734,"longitude":76.576849},{"id":261,"name":"Inderpal Jhaveri","service_id":16,"charge":900,"phone_number":"+916359335978","available":1,"latitude":28.723761,"longitude":76.664778},{"id":262,"name":"Waida Dwevedi","service_id":13,"charge":1100,"phone_number":"+914710643420","available":1,"latitude":28.721587,"longitude":77.075751},{"id":263,"name":"Sukrit Malwan","service_id":10,"charge":500,"phone_number":"+910756086201","available":1,"latitude":28.604358,"longitude":77.075181},{"id":264,"name":"Asharudeen Lockwani","service_id":14,"charge":950,"phone_number":"+917685694790","available":1,"latitude":28.733792,"longitude":76.605594},{"id":265,"name":"Bhanumati Madina","service_id":15,"charge":950,"phone_number":"+919497933701","available":1,"latitude":28.517372,"longitude":76.578632},{"id":266,"name":"Aakaar Yohannan","service_id":7,"charge":850,"phone_number":"+913470853458","available":1,"latitude":28.703343,"longitude":77.163483},{"id":267,"name":"Lekha Yohannan","service_id":16,"charge":950,"phone_number":"+919478876336","available":1,"latitude":28.82701,"longitude":76.6135},{"id":268,"name":"Muskaan Karpe","service_id":7,"charge":650,"phone_number":"+910823691054","available":1,"latitude":28.764347,"longitude":76.845647},{"id":269,"name":"Ankurjeet Maheshwari","service_id":2,"charge":750,"phone_number":"+914117651405","available":1,"latitude":28.565711,"longitude":76.656343},{"id":270,"name":"Aadil Barai","service_id":10,"charge":850,"phone_number":"+912984868357","available":1,"latitude":28.82702,"longitude":77.099632},{"id":271,"name":"Kalpen Vasistha","service_id":6,"charge":600,"phone_number":"+910785040744","available":1,"latitude":28.683197,"longitude":76.543613},{"id":272,"name":"Nalin Char","service_id":6,"charge":1050,"phone_number":"+917897705317","available":1,"latitude":28.765646,"longitude":76.972184},{"id":273,"name":"Sayujya Kohli","service_id":12,"charge":950,"phone_number":"+911109627544","available":1,"latitude":28.39447,"longitude":76.962601},{"id":274,"name":"Japleen Bais","service_id":8,"charge":1000,"phone_number":"+915786048086","available":1,"latitude":28.86738,"longitude":76.939359},{"id":275,"name":"Rajamani Chechani","service_id":15,"charge":750,"phone_number":"+910849496594","available":1,"latitude":28.851117,"longitude":76.901761},{"id":276,"name":"Ekachakra Gurjar","service_id":1,"charge":700,"phone_number":"+915782628975","available":1,"latitude":28.533396,"longitude":76.858216},{"id":277,"name":"Idhaya Malhotra","service_id":5,"charge":1100,"phone_number":"+918887224524","available":1,"latitude":28.847007,"longitude":77.008823},{"id":278,"name":"Abhinav Prakash","service_id":10,"charge":1150,"phone_number":"+914506434884","available":1,"latitude":28.415913,"longitude":77.133217},{"id":279,"name":"Adweta Keshri","service_id":2,"charge":1200,"phone_number":"+913636629994","available":1,"latitude":28.523979,"longitude":76.788378},{"id":280,"name":"Yashika Maddipatla","service_id":2,"charge":800,"phone_number":"+910781479554","available":1,"latitude":28.689303,"longitude":76.839731},{"id":281,"name":"Nikhil Kavi","service_id":4,"charge":1100,"phone_number":"+913241854579","available":1,"latitude":28.624297,"longitude":76.791743},{"id":282,"name":"Amrutha Sawlani","service_id":16,"charge":1150,"phone_number":"+911450565962","available":1,"latitude":28.811867,"longitude":76.694588},{"id":283,"name":"Mahant Omkar","service_id":12,"charge":500,"phone_number":"+912716072351","available":1,"latitude":28.828445,"longitude":76.680848},{"id":284,"name":"Surjeet Rani","service_id":10,"charge":850,"phone_number":"+916726557290","available":1,"latitude":28.799116,"longitude":77.17013},{"id":285,"name":"Vishwanath Swamy","service_id":10,"charge":950,"phone_number":"+913462389294","available":1,"latitude":28.85504,"longitude":77.078034},{"id":286,"name":"Shipra Sarraf","service_id":6,"charge":1000,"phone_number":"+915796661082","available":1,"latitude":28.75406,"longitude":76.571979},{"id":287,"name":"Chirag Azhar","service_id":4,"charge":800,"phone_number":"+917253490719","available":1,"latitude":28.550564,"longitude":77.121411},{"id":288,"name":"Atishay Singhania","service_id":13,"charge":800,"phone_number":"+917526941650","available":1,"latitude":28.85345,"longitude":77.134104},{"id":289,"name":"Kayalvizhi Yaddanapudi","service_id":1,"charge":1050,"phone_number":"+913207295060","available":1,"latitude":28.516302,"longitude":76.694312},{"id":290,"name":"Abdul Lall","service_id":5,"charge":500,"phone_number":"+910192316552","available":1,"latitude":28.749273,"longitude":76.85459},{"id":291,"name":"Prakash Tyagi","service_id":11,"charge":750,"phone_number":"+917009630424","available":1,"latitude":28.546772,"longitude":76.84993},{"id":292,"name":"Paraman Saraswat","service_id":4,"charge":950,"phone_number":"+915797590950","available":1,"latitude":28.825137,"longitude":76.525742},{"id":293,"name":"Harbhajan Nasreen","service_id":5,"charge":850,"phone_number":"+918873257764","available":1,"latitude":28.542064,"longitude":76.823329},{"id":294,"name":"Lotika Chatterjee","service_id":6,"charge":500,"phone_number":"+919671878142","available":1,"latitude":28.853915,"longitude":76.859248},{"id":295,"name":"Nikith Krishnan","service_id":16,"charge":1150,"phone_number":"+916214123642","available":1,"latitude":28.711147,"longitude":76.824745},{"id":296,"name":"Mangai Sheth","service_id":14,"charge":1100,"phone_number":"+917983068319","available":1,"latitude":28.510591,"longitude":76.67966},{"id":297,"name":"Yatharth Dixit","service_id":11,"charge":650,"phone_number":"+914664041522","available":1,"latitude":28.522364,"longitude":76.802815},{"id":298,"name":"Karthik Khobragade","service_id":14,"charge":550,"phone_number":"+914053632529","available":1,"latitude":28.80287,"longitude":77.03435},{"id":299,"name":"Faiyaz Theratipally","service_id":8,"charge":900,"phone_number":"+913764789082","available":1,"latitude":28.630833,"longitude":76.999167},{"id":300,"name":"Madhusri Deep","service_id":7,"charge":900,"phone_number":"+914487856028","available":1,"latitude":28.400132,"longitude":77.136101},{"id":301,"name":"Sudheer Thawani","service_id":3,"charge":550,"phone_number":"+916364612305","available":1,"latitude":28.682648,"longitude":77.119474},{"id":302,"name":"Indirveer Purwar","service_id":1,"charge":1200,"phone_number":"+916536156828","available":1,"latitude":28.566041,"longitude":76.696714},{"id":303,"name":"Jyotsana Dara","service_id":4,"charge":1100,"phone_number":"+919785482384","available":1,"latitude":28.773797,"longitude":76.580102},{"id":304,"name":"Kriyan Kadakia","service_id":15,"charge":1050,"phone_number":"+918188963622","available":1,"latitude":28.735325,"longitude":76.852786},{"id":305,"name":"Abhaysinha Mohanty","service_id":5,"charge":800,"phone_number":"+914644204067","available":1,"latitude":28.843164,"longitude":77.095454},{"id":306,"name":"Danish Bala","service_id":1,"charge":600,"phone_number":"+910573389984","available":1,"latitude":28.6869,"longitude":76.524791},{"id":307,"name":"GopalDas Sankaran","service_id":14,"charge":1200,"phone_number":"+917860931022","available":1,"latitude":28.43581,"longitude":76.682285},{"id":308,"name":"Subhra Borah","service_id":11,"charge":850,"phone_number":"+910784615886","available":1,"latitude":28.579129,"longitude":76.566102},{"id":309,"name":"Avni Verma","service_id":12,"charge":500,"phone_number":"+916531345069","available":1,"latitude":28.702785,"longitude":76.96193},{"id":310,"name":"Kayalvizhi Kari","service_id":5,"charge":1050,"phone_number":"+919311125295","available":1,"latitude":28.832636,"longitude":77.049165},{"id":311,"name":"Jigisu Varkey","service_id":14,"charge":900,"phone_number":"+910602694759","available":1,"latitude":28.682649,"longitude":77.025056},{"id":312,"name":"Udyati Gond","service_id":13,"charge":800,"phone_number":"+910675355262","available":1,"latitude":28.521681,"longitude":76.702465},{"id":313,"name":"Armoghan Bawa","service_id":12,"charge":850,"phone_number":"+919165996624","available":1,"latitude":28.74257,"longitude":77.081716},{"id":314,"name":"Ulagarasan Baddur","service_id":8,"charge":650,"phone_number":"+918705123105","available":1,"latitude":28.491199,"longitude":76.564073},{"id":315,"name":"Juhi Lad","service_id":9,"charge":750,"phone_number":"+911808587406","available":1,"latitude":28.738265,"longitude":76.84075},{"id":316,"name":"Zilmil Ahamad","service_id":10,"charge":800,"phone_number":"+916275437651","available":1,"latitude":28.659745,"longitude":76.887533},{"id":317,"name":"Kushal Naqvi","service_id":3,"charge":550,"phone_number":"+919133094194","available":1,"latitude":28.388365,"longitude":76.861366},{"id":318,"name":"Omkant Dave","service_id":4,"charge":1150,"phone_number":"+911221358430","available":1,"latitude":28.400922,"longitude":76.668935},{"id":319,"name":"Niteesh Chaurasia","service_id":2,"charge":1150,"phone_number":"+919123795242","available":1,"latitude":28.410345,"longitude":76.62411},{"id":320,"name":"Sanjeev Pillay","service_id":2,"charge":850,"phone_number":"+913201490310","available":1,"latitude":28.517134,"longitude":76.546086},{"id":321,"name":"Anshika Ram","service_id":2,"charge":900,"phone_number":"+917692188426","available":1,"latitude":28.676395,"longitude":76.907168},{"id":322,"name":"Jasmeet Aenugu","service_id":6,"charge":750,"phone_number":"+911525250740","available":1,"latitude":28.867434,"longitude":76.693359},{"id":323,"name":"Harshita Ranjan","service_id":13,"charge":1050,"phone_number":"+917911772321","available":1,"latitude":28.565102,"longitude":77.122675},{"id":324,"name":"Manikandan Manchanda","service_id":4,"charge":700,"phone_number":"+915915495607","available":1,"latitude":28.848853,"longitude":76.713161},{"id":325,"name":"Durga Lala","service_id":2,"charge":550,"phone_number":"+914590119278","available":1,"latitude":28.608004,"longitude":76.618519},{"id":326,"name":"Jaisnavi Jhindal","service_id":8,"charge":550,"phone_number":"+914255224943","available":1,"latitude":28.536142,"longitude":76.594152},{"id":327,"name":"Heena Lala","service_id":15,"charge":800,"phone_number":"+914516763993","available":1,"latitude":28.655497,"longitude":77.04575},{"id":328,"name":"Gomathi Mital","service_id":12,"charge":1000,"phone_number":"+912340269967","available":1,"latitude":28.413434,"longitude":76.745539},{"id":329,"name":"Panini Dasgupta","service_id":14,"charge":1100,"phone_number":"+916443908675","available":1,"latitude":28.681442,"longitude":76.920118},{"id":330,"name":"Nagesh Bugalia","service_id":12,"charge":1100,"phone_number":"+912531025160","available":1,"latitude":28.727406,"longitude":77.191641},{"id":331,"name":"Anitha Ramaswamy","service_id":3,"charge":850,"phone_number":"+916302488372","available":1,"latitude":28.454881,"longitude":76.69905},{"id":332,"name":"Mirza Jhindal","service_id":11,"charge":1150,"phone_number":"+918033365441","available":1,"latitude":28.766314,"longitude":76.537263},{"id":333,"name":"Sathya Mehta","service_id":2,"charge":800,"phone_number":"+912066199004","available":1,"latitude":28.535852,"longitude":76.888589},{"id":334,"name":"Yachana Murthy","service_id":12,"charge":750,"phone_number":"+919881006873","available":1,"latitude":28.568814,"longitude":77.144929},{"id":335,"name":"Arnab Selvaraj","service_id":7,"charge":650,"phone_number":"+910420457478","available":1,"latitude":28.690222,"longitude":76.835022},{"id":336,"name":"Kawaljit Varshney","service_id":15,"charge":850,"phone_number":"+918982742600","available":1,"latitude":28.740739,"longitude":77.071771},{"id":337,"name":"Dhir Khatoon","service_id":2,"charge":550,"phone_number":"+911333000936","available":1,"latitude":28.447375,"longitude":77.014435},{"id":338,"name":"Anitha Meda","service_id":7,"charge":600,"phone_number":"+911114197793","available":1,"latitude":28.8078,"longitude":77.139169},{"id":339,"name":"Rishu Islam","service_id":2,"charge":950,"phone_number":"+910527230350","available":1,"latitude":28.72484,"longitude":76.641601},{"id":340,"name":"Subodh Gite","service_id":1,"charge":750,"phone_number":"+912901558493","available":1,"latitude":28.86486,"longitude":77.080234},{"id":341,"name":"Prajeeth Narala","service_id":5,"charge":650,"phone_number":"+913822023520","available":1,"latitude":28.461909,"longitude":76.666082},{"id":342,"name":"Anjana Contractor","service_id":14,"charge":950,"phone_number":"+919314722977","available":1,"latitude":28.80515,"longitude":77.192444},{"id":343,"name":"Swati Ritikesh","service_id":3,"charge":650,"phone_number":"+919728617727","available":1,"latitude":28.577998,"longitude":76.668842},{"id":344,"name":"Vedanshi Mani","service_id":4,"charge":750,"phone_number":"+910587033345","available":1,"latitude":28.731144,"longitude":77.041259},{"id":345,"name":"Oni Nagar","service_id":13,"charge":1000,"phone_number":"+911094211532","available":1,"latitude":28.461168,"longitude":76.550066},{"id":346,"name":"Harsha Shetty","service_id":2,"charge":900,"phone_number":"+918227104322","available":1,"latitude":28.588645,"longitude":76.544401},{"id":347,"name":"Jashveer Acharya","service_id":9,"charge":1000,"phone_number":"+916961235266","available":1,"latitude":28.505362,"longitude":77.079398},{"id":348,"name":"Yachna Dhingra","service_id":9,"charge":1100,"phone_number":"+916931893918","available":1,"latitude":28.500064,"longitude":76.614132},{"id":349,"name":"Pinank Parikh","service_id":14,"charge":1150,"phone_number":"+913470049147","available":1,"latitude":28.669052,"longitude":76.678624},{"id":350,"name":"Neelja Meena","service_id":9,"charge":1150,"phone_number":"+913152391919","available":1,"latitude":28.719856,"longitude":77.021557},{"id":351,"name":"Siddh Kavi","service_id":6,"charge":700,"phone_number":"+917808539451","available":1,"latitude":28.777173,"longitude":77.188294},{"id":352,"name":"Harkirat Mohan","service_id":13,"charge":500,"phone_number":"+915630902135","available":1,"latitude":28.392432,"longitude":76.871099},{"id":353,"name":"Yochana Minhas","service_id":8,"charge":600,"phone_number":"+918757117668","available":1,"latitude":28.549495,"longitude":76.829472},{"id":354,"name":"Rishika Molla","service_id":12,"charge":1150,"phone_number":"+913157571233","available":1,"latitude":28.803228,"longitude":76.762025},{"id":355,"name":"Babli Mohan","service_id":13,"charge":500,"phone_number":"+914727630863","available":1,"latitude":28.842375,"longitude":76.862135},{"id":356,"name":"Hemlata Siddiqui","service_id":10,"charge":1150,"phone_number":"+913903539968","available":1,"latitude":28.745888,"longitude":77.066856},{"id":357,"name":"Dhir Ram","service_id":4,"charge":1050,"phone_number":"+910101199456","available":1,"latitude":28.604571,"longitude":76.651482},{"id":358,"name":"Ilavalagi Sood","service_id":13,"charge":1100,"phone_number":"+913812238284","available":1,"latitude":28.810877,"longitude":76.578574},{"id":359,"name":"Ishan Mathur","service_id":1,"charge":900,"phone_number":"+918321327564","available":1,"latitude":28.607857,"longitude":76.710866},{"id":360,"name":"Yaksh Ganesan","service_id":14,"charge":850,"phone_number":"+917518644211","available":1,"latitude":28.631939,"longitude":76.664117},{"id":361,"name":"Shrestha Prasath","service_id":1,"charge":550,"phone_number":"+916688336202","available":1,"latitude":28.41556,"longitude":76.941481},{"id":362,"name":"Asiya Magdum","service_id":7,"charge":900,"phone_number":"+917090887365","available":1,"latitude":28.60151,"longitude":76.861503},{"id":363,"name":"Latifah Sah","service_id":3,"charge":600,"phone_number":"+919503388931","available":1,"latitude":28.748431,"longitude":77.121608},{"id":364,"name":"Gayathri Randhawa","service_id":12,"charge":500,"phone_number":"+912939758240","available":1,"latitude":28.76321,"longitude":76.560489},{"id":365,"name":"Ali Chakma","service_id":16,"charge":800,"phone_number":"+913211346028","available":1,"latitude":28.835341,"longitude":76.898374},{"id":366,"name":"Ruhi Aenugu","service_id":13,"charge":600,"phone_number":"+918333903396","available":1,"latitude":28.661954,"longitude":76.677182},{"id":367,"name":"Rachita Sachar","service_id":5,"charge":600,"phone_number":"+917301160901","available":1,"latitude":28.511052,"longitude":76.573597},{"id":368,"name":"Madhurima Chhateja","service_id":6,"charge":950,"phone_number":"+917374977199","available":1,"latitude":28.588822,"longitude":77.056923},{"id":369,"name":"Miren Kishor","service_id":10,"charge":650,"phone_number":"+916706408330","available":1,"latitude":28.644913,"longitude":76.650473},{"id":370,"name":"Taramla Mutti","service_id":9,"charge":1050,"phone_number":"+919910854415","available":1,"latitude":28.695871,"longitude":77.039277},{"id":371,"name":"Jarita Omkar","service_id":8,"charge":500,"phone_number":"+916164547306","available":1,"latitude":28.547951,"longitude":76.715734},{"id":372,"name":"Tanay Vaidya","service_id":10,"charge":800,"phone_number":"+917406950089","available":1,"latitude":28.419634,"longitude":76.507179},{"id":373,"name":"Yashpal Konda","service_id":7,"charge":800,"phone_number":"+910504488073","available":1,"latitude":28.65481,"longitude":76.926007},{"id":374,"name":"Sravan Choudhury","service_id":12,"charge":850,"phone_number":"+916680632723","available":1,"latitude":28.69153,"longitude":76.883266},{"id":375,"name":"Pratul Krishna","service_id":15,"charge":850,"phone_number":"+918636785313","available":1,"latitude":28.727654,"longitude":76.714153},{"id":376,"name":"Asmita Poddar","service_id":3,"charge":950,"phone_number":"+919484194321","available":1,"latitude":28.544296,"longitude":77.181225},{"id":377,"name":"Kiyana Kairati","service_id":3,"charge":600,"phone_number":"+918137955146","available":1,"latitude":28.568861,"longitude":77.051925},{"id":378,"name":"Subodh Luthra","service_id":10,"charge":600,"phone_number":"+914859596142","available":1,"latitude":28.608253,"longitude":77.131023},{"id":379,"name":"Jaganath Parashar","service_id":5,"charge":850,"phone_number":"+917155806251","available":1,"latitude":28.526915,"longitude":76.889356},{"id":380,"name":"Shamik Mahmood","service_id":9,"charge":1050,"phone_number":"+913084732638","available":1,"latitude":28.549029,"longitude":76.552085},{"id":381,"name":"Chetan Chavan","service_id":12,"charge":1000,"phone_number":"+917120192846","available":1,"latitude":28.774573,"longitude":76.879338},{"id":382,"name":"Aanya Ganesan","service_id":5,"charge":650,"phone_number":"+916325971614","available":1,"latitude":28.488675,"longitude":76.670181},{"id":383,"name":"Lusha Vasa","service_id":7,"charge":1050,"phone_number":"+911433860613","available":1,"latitude":28.441389,"longitude":77.094339},{"id":384,"name":"Bhavani Pillay","service_id":5,"charge":700,"phone_number":"+916197592159","available":1,"latitude":28.834662,"longitude":77.029048},{"id":385,"name":"Shrey Puri","service_id":13,"charge":950,"phone_number":"+910629223958","available":1,"latitude":28.575197,"longitude":76.832109},{"id":386,"name":"Dhairya Dey","service_id":14,"charge":850,"phone_number":"+912502415672","available":1,"latitude":28.718818,"longitude":77.09541},{"id":387,"name":"Kamran Basak","service_id":10,"charge":650,"phone_number":"+916074037711","available":1,"latitude":28.500655,"longitude":76.778172},{"id":388,"name":"Forum Ataher","service_id":12,"charge":600,"phone_number":"+918354456868","available":1,"latitude":28.808431,"longitude":76.913307},{"id":389,"name":"Karamjot Rajagopalan","service_id":11,"charge":800,"phone_number":"+910621116426","available":1,"latitude":28.835169,"longitude":76.530092},{"id":390,"name":"Tanupriya Ramaswamy","service_id":11,"charge":1050,"phone_number":"+916640162520","available":1,"latitude":28.380062,"longitude":76.772898},{"id":391,"name":"Aishwarya Nadkarni","service_id":11,"charge":1100,"phone_number":"+910957156386","available":1,"latitude":28.471711,"longitude":77.103053},{"id":392,"name":"Hemanshu Bhat","service_id":15,"charge":900,"phone_number":"+918433757444","available":1,"latitude":28.478681,"longitude":76.768847},{"id":393,"name":"Aqsa Thakur","service_id":3,"charge":900,"phone_number":"+917015048796","available":1,"latitude":28.857526,"longitude":76.657714},{"id":394,"name":"Elango Obed","service_id":14,"charge":650,"phone_number":"+910228283831","available":1,"latitude":28.557701,"longitude":76.911075},{"id":395,"name":"Yogita Walla","service_id":16,"charge":900,"phone_number":"+910141718143","available":1,"latitude":28.594137,"longitude":76.991395},{"id":396,"name":"Zansi Gade","service_id":8,"charge":700,"phone_number":"+917354438814","available":1,"latitude":28.579843,"longitude":76.639513},{"id":397,"name":"Lalit Gond","service_id":5,"charge":1200,"phone_number":"+916520715797","available":1,"latitude":28.777525,"longitude":76.86332},{"id":398,"name":"Ishivara Pathan","service_id":11,"charge":700,"phone_number":"+910770952338","available":1,"latitude":28.700808,"longitude":76.915413},{"id":399,"name":"Ashirvad Vaidya","service_id":8,"charge":800,"phone_number":"+910120493702","available":1,"latitude":28.505105,"longitude":76.978945},{"id":400,"name":"Probal Nagi","service_id":4,"charge":900,"phone_number":"+916581072835","available":1,"latitude":28.602127,"longitude":77.112483},{"id":401,"name":"Rameshwar Din","service_id":4,"charge":800,"phone_number":"+916317929273","available":1,"latitude":28.506032,"longitude":76.992701},{"id":402,"name":"Hemal Vikram","service_id":13,"charge":850,"phone_number":"+916607018067","available":1,"latitude":28.817301,"longitude":76.939654},{"id":403,"name":"Noorsaba Manne","service_id":7,"charge":650,"phone_number":"+914716151672","available":1,"latitude":28.437233,"longitude":77.128854},{"id":404,"name":"Maya Sivan","service_id":6,"charge":950,"phone_number":"+916204246694","available":1,"latitude":28.553151,"longitude":77.158692},{"id":405,"name":"Lav Tanu","service_id":7,"charge":900,"phone_number":"+917770235545","available":1,"latitude":28.436495,"longitude":77.103943},{"id":406,"name":"Prabodh Balot","service_id":14,"charge":1000,"phone_number":"+915902900758","available":1,"latitude":28.706124,"longitude":77.04965},{"id":407,"name":"Kshitij Oswal","service_id":5,"charge":800,"phone_number":"+910206923987","available":1,"latitude":28.812615,"longitude":77.08787},{"id":408,"name":"Pratham Desabathula","service_id":11,"charge":1200,"phone_number":"+911323339461","available":1,"latitude":28.762919,"longitude":77.153016},{"id":409,"name":"Astitva Jivani","service_id":10,"charge":850,"phone_number":"+919856439852","available":1,"latitude":28.45485,"longitude":76.956274},{"id":410,"name":"Angad Pokhriyal","service_id":8,"charge":650,"phone_number":"+916703950659","available":1,"latitude":28.726897,"longitude":77.174119},{"id":411,"name":"Rithvik Middinti","service_id":14,"charge":650,"phone_number":"+914486498330","available":1,"latitude":28.7849,"longitude":76.930564},{"id":412,"name":"Anjana Iyer","service_id":16,"charge":950,"phone_number":"+910318399986","available":1,"latitude":28.808185,"longitude":76.821169},{"id":413,"name":"Ranjeet Sharaf","service_id":13,"charge":550,"phone_number":"+912174700487","available":1,"latitude":28.599113,"longitude":76.874514},{"id":414,"name":"Talin Barai","service_id":11,"charge":650,"phone_number":"+916708926143","available":1,"latitude":28.6071,"longitude":76.917359},{"id":415,"name":"Laiba Prasad","service_id":8,"charge":1200,"phone_number":"+912424540166","available":1,"latitude":28.624009,"longitude":76.731245},{"id":416,"name":"Eklavya Maddeshiya","service_id":12,"charge":850,"phone_number":"+913511258047","available":1,"latitude":28.617747,"longitude":76.968226},{"id":417,"name":"Meet Sekhar","service_id":1,"charge":1150,"phone_number":"+914357895324","available":1,"latitude":28.550529,"longitude":77.07644},{"id":418,"name":"Chaitya Khobragade","service_id":13,"charge":600,"phone_number":"+915428782268","available":1,"latitude":28.770918,"longitude":77.177154},{"id":419,"name":"Prateek Mourya","service_id":4,"charge":650,"phone_number":"+913475485349","available":1,"latitude":28.508098,"longitude":77.000657},{"id":420,"name":"Shrestha Mangal","service_id":5,"charge":900,"phone_number":"+910143646752","available":1,"latitude":28.519797,"longitude":76.999829},{"id":421,"name":"Devadathan Walia","service_id":14,"charge":500,"phone_number":"+917578852625","available":1,"latitude":28.856752,"longitude":76.608653},{"id":422,"name":"Tarak Mahankali","service_id":14,"charge":1200,"phone_number":"+912179736312","available":1,"latitude":28.391648,"longitude":76.513584},{"id":423,"name":"Kanisha Govil","service_id":7,"charge":1050,"phone_number":"+913090836748","available":1,"latitude":28.70714,"longitude":76.707987},{"id":424,"name":"Ramakrishna Rausa","service_id":3,"charge":850,"phone_number":"+914002461180","available":1,"latitude":28.697393,"longitude":76.52283},{"id":425,"name":"Bidisha Sachar","service_id":16,"charge":1000,"phone_number":"+914837369503","available":1,"latitude":28.60708,"longitude":76.687128},{"id":426,"name":"Sapna Mandadi","service_id":8,"charge":800,"phone_number":"+919593351265","available":1,"latitude":28.563435,"longitude":76.864262},{"id":427,"name":"Waida Anupama","service_id":11,"charge":1000,"phone_number":"+912591019657","available":1,"latitude":28.750095,"longitude":77.028903},{"id":428,"name":"Kajori Shrivas","service_id":9,"charge":1000,"phone_number":"+914345130217","available":1,"latitude":28.522005,"longitude":76.630509},{"id":429,"name":"Nallasivan Mukherjee","service_id":1,"charge":600,"phone_number":"+916390664059","available":1,"latitude":28.865024,"longitude":77.151028},{"id":430,"name":"Sharique Islam","service_id":10,"charge":550,"phone_number":"+914602133604","available":1,"latitude":28.438298,"longitude":76.815157},{"id":431,"name":"Banjeet Jassal","service_id":9,"charge":600,"phone_number":"+914287189035","available":1,"latitude":28.772454,"longitude":76.927631},{"id":432,"name":"Shashikala Anupama","service_id":5,"charge":800,"phone_number":"+917817979213","available":1,"latitude":28.563819,"longitude":76.91916},{"id":433,"name":"Jimi Tewari","service_id":14,"charge":700,"phone_number":"+918500544351","available":1,"latitude":28.729144,"longitude":77.179874},{"id":434,"name":"Nainika Pillai","service_id":15,"charge":850,"phone_number":"+915024929929","available":1,"latitude":28.488079,"longitude":76.71109},{"id":435,"name":"Rabin Kanda","service_id":13,"charge":750,"phone_number":"+918966761495","available":1,"latitude":28.751632,"longitude":76.897432},{"id":436,"name":"Jigna Ratta","service_id":7,"charge":1100,"phone_number":"+911217879463","available":1,"latitude":28.842942,"longitude":76.96248},{"id":437,"name":"Darshit Bumb","service_id":5,"charge":1000,"phone_number":"+913876017146","available":1,"latitude":28.586963,"longitude":76.688233},{"id":438,"name":"Amarnath Rastogi","service_id":8,"charge":850,"phone_number":"+912353343867","available":1,"latitude":28.836445,"longitude":76.867222},{"id":439,"name":"Chavi Barman","service_id":10,"charge":1200,"phone_number":"+917038604962","available":1,"latitude":28.505065,"longitude":77.173807},{"id":440,"name":"Hemavarun Lad","service_id":14,"charge":1200,"phone_number":"+912963039422","available":1,"latitude":28.429255,"longitude":76.994068},{"id":441,"name":"Vyom Rakhecha","service_id":1,"charge":500,"phone_number":"+915726170481","available":1,"latitude":28.46422,"longitude":76.590886},{"id":442,"name":"Suyesh Kumar","service_id":9,"charge":850,"phone_number":"+911026733051","available":1,"latitude":28.630124,"longitude":76.573242},{"id":443,"name":"Mahasweta Anam","service_id":4,"charge":700,"phone_number":"+913846735530","available":1,"latitude":28.681558,"longitude":76.912163},{"id":444,"name":"Yansh Panchal","service_id":4,"charge":600,"phone_number":"+910518310907","available":1,"latitude":28.665946,"longitude":77.104253},{"id":445,"name":"Gnanam Koppula","service_id":11,"charge":950,"phone_number":"+911385422903","available":1,"latitude":28.575203,"longitude":77.153492},{"id":446,"name":"Vidhi Souza","service_id":10,"charge":1200,"phone_number":"+914895934161","available":1,"latitude":28.646003,"longitude":76.82592},{"id":447,"name":"Akshaya Dhawan","service_id":3,"charge":950,"phone_number":"+914031741994","available":1,"latitude":28.497487,"longitude":77.162724},{"id":448,"name":"Prashansi Ramachandran","service_id":1,"charge":550,"phone_number":"+912719071645","available":1,"latitude":28.574631,"longitude":76.85875},{"id":449,"name":"Nageshwaran Randhawa","service_id":2,"charge":1000,"phone_number":"+916319070536","available":1,"latitude":28.558613,"longitude":76.827838},{"id":450,"name":"Mouni Jivani","service_id":15,"charge":750,"phone_number":"+916396959013","available":1,"latitude":28.56336,"longitude":76.946136},{"id":451,"name":"Sehej Wadhawan","service_id":3,"charge":950,"phone_number":"+916216048502","available":1,"latitude":28.748481,"longitude":76.938454},{"id":452,"name":"Lavanya Nadaf","service_id":10,"charge":850,"phone_number":"+915965309073","available":1,"latitude":28.706079,"longitude":76.812796},{"id":453,"name":"Vishnu Bajaj","service_id":10,"charge":700,"phone_number":"+918744738834","available":1,"latitude":28.532315,"longitude":77.120736},{"id":454,"name":"Eshma Kanchapu","service_id":15,"charge":850,"phone_number":"+917719165874","available":1,"latitude":28.614738,"longitude":76.589918},{"id":455,"name":"Thanvi Bhavsar","service_id":10,"charge":1150,"phone_number":"+915233251410","available":1,"latitude":28.538504,"longitude":76.826455},{"id":456,"name":"Jeyahar Baria","service_id":15,"charge":500,"phone_number":"+911272015609","available":1,"latitude":28.628359,"longitude":76.824148},{"id":457,"name":"Param Aenugu","service_id":8,"charge":550,"phone_number":"+917047895979","available":1,"latitude":28.559078,"longitude":76.553368},{"id":458,"name":"Maaran Maurya","service_id":3,"charge":500,"phone_number":"+919359755353","available":1,"latitude":28.625556,"longitude":76.780695},{"id":459,"name":"Mansi Sur","service_id":11,"charge":1100,"phone_number":"+919047908579","available":1,"latitude":28.690978,"longitude":77.069138},{"id":460,"name":"Shambhavi Srinivasan","service_id":4,"charge":1200,"phone_number":"+916036787286","available":1,"latitude":28.495851,"longitude":76.881428},{"id":461,"name":"Inderpreet Chaudhari","service_id":2,"charge":750,"phone_number":"+916617835688","available":1,"latitude":28.53984,"longitude":76.655633},{"id":462,"name":"Niesha Shan","service_id":8,"charge":650,"phone_number":"+912571012739","available":1,"latitude":28.382581,"longitude":77.113378},{"id":463,"name":"Anvi Deshpande","service_id":13,"charge":700,"phone_number":"+913159176847","available":1,"latitude":28.687718,"longitude":76.621},{"id":464,"name":"Saurav Akhtar","service_id":3,"charge":600,"phone_number":"+910196475172","available":1,"latitude":28.713013,"longitude":76.861894},{"id":465,"name":"Samay Agrahari","service_id":12,"charge":900,"phone_number":"+916844051327","available":1,"latitude":28.679843,"longitude":76.939859},{"id":466,"name":"Anikrishna Sunder","service_id":3,"charge":750,"phone_number":"+919933795597","available":1,"latitude":28.641461,"longitude":76.522988},{"id":467,"name":"Vigneshwaran Mhaske","service_id":13,"charge":900,"phone_number":"+913447734512","available":1,"latitude":28.539478,"longitude":77.147125},{"id":468,"name":"Chinnamani Kade","service_id":6,"charge":900,"phone_number":"+911433769793","available":1,"latitude":28.526754,"longitude":76.543328},{"id":469,"name":"Nirja Nischal","service_id":16,"charge":600,"phone_number":"+911828685819","available":1,"latitude":28.393199,"longitude":76.655121},{"id":470,"name":"Janhvi Mehta","service_id":12,"charge":1200,"phone_number":"+911436721311","available":1,"latitude":28.777912,"longitude":76.562605},{"id":471,"name":"Gnanavalli Madan","service_id":6,"charge":650,"phone_number":"+913037061610","available":1,"latitude":28.565517,"longitude":77.108452},{"id":472,"name":"Arni Dasgupta","service_id":4,"charge":600,"phone_number":"+914555388547","available":1,"latitude":28.442655,"longitude":76.610161},{"id":473,"name":"Sony Khosla","service_id":2,"charge":800,"phone_number":"+913617824379","available":1,"latitude":28.753328,"longitude":77.173326},{"id":474,"name":"Zunaira Hasnain","service_id":6,"charge":1200,"phone_number":"+913489412830","available":1,"latitude":28.839122,"longitude":76.713565},{"id":475,"name":"Anaka Middinti","service_id":6,"charge":700,"phone_number":"+911598921320","available":1,"latitude":28.747129,"longitude":76.997467},{"id":476,"name":"Zansi Choudhury","service_id":11,"charge":900,"phone_number":"+914646699236","available":1,"latitude":28.795438,"longitude":76.538845},{"id":477,"name":"Nitikarsh Middinti","service_id":1,"charge":700,"phone_number":"+915446936574","available":1,"latitude":28.773075,"longitude":77.022887},{"id":478,"name":"Chandrashekhar Sathe","service_id":16,"charge":1000,"phone_number":"+917863098126","available":1,"latitude":28.538283,"longitude":76.508809},{"id":479,"name":"Rampratap Kari","service_id":16,"charge":650,"phone_number":"+911085852333","available":1,"latitude":28.617995,"longitude":77.105723},{"id":480,"name":"Asvin Gomashe","service_id":8,"charge":700,"phone_number":"+918920266540","available":1,"latitude":28.74194,"longitude":76.886537},{"id":481,"name":"Sonth Prajapati","service_id":7,"charge":550,"phone_number":"+913290623252","available":1,"latitude":28.794646,"longitude":77.174608},{"id":482,"name":"Krisha Jani","service_id":13,"charge":650,"phone_number":"+911333368652","available":1,"latitude":28.478593,"longitude":76.751011},{"id":483,"name":"Ibrahim Raykar","service_id":2,"charge":1100,"phone_number":"+912088158646","available":1,"latitude":28.395501,"longitude":77.052518},{"id":484,"name":"Pranay Kumer","service_id":2,"charge":600,"phone_number":"+910811166892","available":1,"latitude":28.636098,"longitude":76.678598},{"id":485,"name":"Haarathi Hasija","service_id":2,"charge":500,"phone_number":"+917493505799","available":1,"latitude":28.5249,"longitude":76.856509},{"id":486,"name":"Priyamvada Pandya","service_id":16,"charge":600,"phone_number":"+916008790248","available":1,"latitude":28.395288,"longitude":76.592402},{"id":487,"name":"Sarika Hayer","service_id":11,"charge":750,"phone_number":"+918144461869","available":1,"latitude":28.803923,"longitude":76.592759},{"id":488,"name":"Nilima Desai","service_id":12,"charge":1050,"phone_number":"+911139819622","available":1,"latitude":28.596522,"longitude":77.147903},{"id":489,"name":"Yarah Kukreja","service_id":5,"charge":550,"phone_number":"+918864591611","available":1,"latitude":28.604178,"longitude":77.089277},{"id":490,"name":"Mirza Jodha","service_id":15,"charge":500,"phone_number":"+919245627957","available":1,"latitude":28.531312,"longitude":76.915675},{"id":491,"name":"Ehsaan Venkatesh","service_id":9,"charge":800,"phone_number":"+912267575779","available":1,"latitude":28.839777,"longitude":76.938987},{"id":492,"name":"Nishtha Dudeja","service_id":2,"charge":750,"phone_number":"+913380004740","available":1,"latitude":28.478201,"longitude":77.074829},{"id":493,"name":"Jagadeesh Bhasin","service_id":4,"charge":650,"phone_number":"+916211433939","available":1,"latitude":28.603605,"longitude":76.964244},{"id":494,"name":"Agampreet Tewari","service_id":7,"charge":1100,"phone_number":"+911587786196","available":1,"latitude":28.711183,"longitude":76.552518},{"id":495,"name":"Thirugnanam Shivastava","service_id":5,"charge":950,"phone_number":"+911767104915","available":1,"latitude":28.867305,"longitude":76.83235},{"id":496,"name":"Ateequa Anjum","service_id":1,"charge":650,"phone_number":"+918706706996","available":1,"latitude":28.389152,"longitude":76.558783},{"id":497,"name":"Kushwant Hanul","service_id":4,"charge":600,"phone_number":"+914545576459","available":1,"latitude":28.817249,"longitude":76.783412},{"id":498,"name":"Arup Muni","service_id":1,"charge":1150,"phone_number":"+912447023844","available":1,"latitude":28.555392,"longitude":76.938464},{"id":499,"name":"Shyamali Jay","service_id":14,"charge":1050,"phone_number":"+910765939416","available":1,"latitude":28.677695,"longitude":76.627176},{"id":500,"name":"Apurv Ganguly","service_id":16,"charge":750,"phone_number":"+918418595753","available":1,"latitude":28.754997,"longitude":76.984032}]